City_ID,City,Lat,Lng,Max Temp,Humidity,Cloudiness,Wind Speed,Country,Date
0,bethel,41.3712,-73.414,24.87,87,100,2.24,US,1689527259
1,villa emilio carranza,19.9667,-96.6,30.42,60,72,2.3,MX,1689527259
2,grytviken,-54.2811,-36.5092,-5.44,75,41,1.61,GS,1689527259
3,edinburgh of the seven seas,-37.0676,-12.3116,13.04,80,11,13.51,SH,1689527260
4,geraldton,-28.7667,114.6,5.23,87,0,4.63,AU,1689527260
5,nantucket,41.2835,-70.0995,26.08,93,100,7.2,US,1689527024
6,toliara,-23.35,43.6667,20.51,77,0,1.67,MG,1689527260
7,yellowknife,62.456,-114.3525,19.2,68,39,5.36,CA,1689527260
8,kapuskasing,49.4169,-82.4331,18.84,59,82,2.12,CA,1689527260
9,port-aux-francais,-49.35,70.2167,1.91,61,20,12.92,TF,1689527260
10,togur,58.3631,82.8265,14.42,89,12,3.39,RU,1689527261
11,puerto ayora,-0.7393,-90.3518,28.98,98,33,2.68,EC,1689527261
12,sarandi,-23.4436,-51.8739,17.75,63,0,1.54,BR,1689527025
13,margate,51.3813,1.3862,19.83,56,100,4.92,GB,1689527261
14,stanley,54.868,-1.6985,18.73,64,20,10.29,GB,1689527261
15,happy valley-goose bay,53.3168,-60.3315,27.17,54,75,6.69,CA,1689527104
16,fort bragg,35.139,-79.006,32.32,62,40,5.14,US,1689527095
17,mahajanga,-15.7167,46.3167,26.05,58,70,1.13,MG,1689527224
18,hami,42.8,93.45,34.77,10,2,5.86,CN,1689527262
19,saint-philippe,-21.3585,55.7679,22.77,86,58,6.42,RE,1689527262
20,waitangi,-43.9535,-176.5597,8.79,83,100,12.25,NZ,1689527262
21,papatowai,-46.5619,169.4708,9.13,80,63,6.88,NZ,1689527262
22,lompoc,34.6391,-120.4579,27.61,82,0,3.09,US,1689526988
23,medford,42.3265,-122.8756,28.02,43,0,0.45,US,1689527067
24,blackmans bay,-43.0167,147.3167,12.63,65,27,5.66,AU,1689527262
25,stanthorpe,-28.6667,151.95,8.57,94,100,3.19,AU,1689527262
26,cadale,2.7603,46.3222,25.31,78,71,8.83,SO,1689527263
27,port mathurin,-19.6833,63.4167,23.39,79,1,12.25,MU,1689527263
28,alaghsas,17.0187,8.0168,40.99,9,35,4.75,NE,1689527263
29,avarua,-21.2078,-159.775,22.03,73,20,3.6,CK,1689527263
30,albany,42.6001,-73.9662,26.36,87,100,0.89,US,1689527221
31,chela,34.069,104.4619,12.77,74,5,0.66,CN,1689527263
32,olonkinbyen,70.9221,-8.7187,4.26,96,100,10.38,SJ,1689527263
33,kodiak,57.79,-152.4072,12.73,76,75,0.0,US,1689527263
34,tazovsky,67.4667,78.7,7.49,64,3,2.79,RU,1689527073
35,arvayheer,46.2639,102.775,15.77,61,60,2.47,MN,1689527264
36,san luis de la loma,17.2706,-100.8939,32.09,59,39,3.03,MX,1689527264
37,tura,25.5198,90.2201,24.78,89,100,2.42,IN,1689527264
38,adamstown,-25.066,-130.1015,20.9,78,97,3.17,PN,1689527264
39,williams lake,52.1415,-122.1445,21.14,63,30,1.34,CA,1689527264
40,invercargill,-46.4,168.35,9.02,83,79,6.08,NZ,1689527264
41,ust-nera,64.5667,143.2,9.27,89,52,3.78,RU,1689527265
42,honiara,-9.4333,159.95,24.89,89,99,2.0,SB,1689527265
43,kanniyakumari,8.0833,77.5667,28.14,75,95,9.31,IN,1689527265
44,gassol,8.5333,10.4667,32.11,53,22,2.88,NG,1689527265
45,yantongshan,43.2919,126.0094,17.64,97,100,1.66,CN,1689527124
46,uruguaiana,-29.7547,-57.0883,14.97,58,5,3.7,BR,1689527265
47,ilulissat,69.2167,-51.1,4.01,100,100,2.06,GL,1689527266
48,hermanus,-34.4187,19.2345,13.78,86,98,4.5,ZA,1689527266
49,artesia,33.8658,-118.0831,32.1,73,0,3.6,US,1689527267
50,kuraymah,18.55,31.85,37.96,8,3,1.09,SD,1689527267
51,argostolion,38.1811,20.489,33.04,49,0,6.17,GR,1689527267
52,anadyr,64.75,177.4833,14.28,71,0,3.0,RU,1689527267
53,zaragoza,41.6561,-0.8773,33.03,35,0,5.66,ES,1689527268
54,margaret river,-33.95,115.0667,16.15,72,99,6.75,AU,1689527268
55,puerto natales,-51.7236,-72.4875,5.25,60,40,6.69,CL,1689527268
56,al artawiyah,26.5053,45.3444,36.25,6,0,3.98,SA,1689527268
57,ribeira grande,38.5167,-28.7,23.22,64,40,5.14,PT,1689527268
58,darwha,20.3167,77.7667,23.78,89,100,5.69,IN,1689527268
59,buncrana,55.1333,-7.45,15.87,74,56,6.41,IE,1689527269
60,monte alegre,-2.0078,-54.0692,33.21,44,21,2.63,BR,1689527269
61,whangarei,-35.7317,174.3239,11.59,79,38,4.16,NZ,1689527269
62,salida,37.7058,-121.0849,35.07,37,0,2.06,US,1689527269
63,takoradi,4.8845,-1.7554,26.63,80,98,3.63,GH,1689527269
64,ushuaia,-54.8,-68.3,1.76,85,97,2.08,AR,1689527269
65,taulaga,-11.0553,-171.0883,27.94,74,9,6.97,AS,1689527270
66,danja,11.3764,7.5625,28.84,51,67,3.64,NG,1689527270
67,yuktae-dong,40.0247,128.1597,20.97,87,97,1.98,KP,1689527270
68,aasiaat,68.7098,-52.8699,3.03,91,100,0.42,GL,1689527270
69,port moresby,-9.4431,147.1797,22.78,89,23,3.85,PG,1689527270
70,laojunmiao,39.8333,97.7333,24.39,21,0,2.91,CN,1689527270
71,salaverry,-8.2333,-78.9667,23.21,80,87,4.76,PE,1689527271
72,hadibu,12.65,54.0333,25.67,77,27,7.69,YE,1689527271
73,eyl,7.9803,49.8164,25.71,75,37,12.04,SO,1689527271
74,ambalavao,-21.8333,46.9333,14.19,86,91,1.41,MG,1689527271
75,naze,28.3667,129.4833,26.48,85,86,7.24,JP,1689527271
76,lihue,21.9789,-159.3672,24.77,81,75,4.12,US,1689527271
77,bilibino,68.0546,166.4372,20.14,57,4,0.81,RU,1689527271
78,sinop,41.7711,34.8709,17.51,89,7,1.21,TR,1689527272
79,tiksi,71.6872,128.8694,4.31,96,100,1.37,RU,1689527272
80,longyearbyen,78.2186,15.6401,14.91,44,0,7.2,SJ,1689527272
81,pasuquin,18.3328,120.6177,26.77,84,100,3.18,PH,1689527272
82,kousa,25.9141,32.7636,38.05,7,0,4.73,EG,1689527272
83,wailua homesteads,22.0669,-159.378,24.44,86,75,4.12,US,1689527272
84,bacalar,18.6667,-88.3833,32.06,66,75,5.14,MX,1689527273
85,chui,-33.6971,-53.4616,12.31,53,16,5.18,UY,1689527273
86,thompson,55.7435,-97.8558,11.94,78,100,3.2,CA,1689527273
87,markovo,57.3206,107.0881,16.52,97,67,1.92,RU,1689527273
88,kajuru,10.3192,7.6892,26.44,71,26,1.28,NG,1689527273
89,geneina,13.45,22.45,34.95,23,41,1.64,SD,1689527273
90,uturoa,-16.7333,-151.4333,25.59,63,0,4.25,PF,1689527273
91,west island,-12.1568,96.8225,25.99,73,100,6.69,CC,1689527273
92,safaga,26.7292,33.9365,32.11,49,0,0.48,EG,1689527274
93,wuyishan,28.0047,117.8114,25.47,89,100,2.59,CN,1689527274
94,udachny,66.4167,112.4,10.56,52,100,3.65,RU,1689527274
95,maputo,-25.9653,32.5892,19.82,52,20,2.06,MZ,1689527274
96,ust'-kulom,61.6864,53.6902,18.28,61,96,0.42,RU,1689527274
97,el calafate,-50.3408,-72.2768,-1.21,74,2,2.01,AR,1689527274
98,qaqortoq,60.7167,-46.0333,5.83,95,98,2.45,GL,1689527274
99,katsuren-haebaru,26.3369,127.8719,27.43,88,75,7.72,JP,1689527275
100,hithadhoo,-0.6,73.0833,27.89,74,3,0.98,MV,1689527275
101,isafjordur,66.0755,-23.124,10.02,71,0,7.72,IS,1689527275
102,castillos,-34.1667,-53.8333,12.71,48,16,5.5,UY,1689527275
103,punta arenas,-53.15,-70.9167,3.06,87,75,6.17,CL,1689527146
104,isangel,-19.55,169.2667,21.8,74,30,8.2,VU,1689527275
105,afaahiti,-17.75,-149.2833,20.93,60,0,2.61,PF,1689527275
106,antonio enes,-16.2325,39.9086,22.77,70,5,5.51,MZ,1689527275
107,gaiman,-43.2897,-65.4929,6.21,34,3,8.42,AR,1689527276
108,hamilton,39.1834,-84.5333,29.03,66,0,4.63,US,1689527150
109,dese,11.1333,39.6333,17.13,67,75,1.78,ET,1689527276
110,badger,64.8,-147.5333,16.95,79,20,2.57,US,1689527276
111,polyarnyy,69.1989,33.4478,15.46,75,70,2.24,RU,1689527276
112,port elizabeth,-33.918,25.5701,14.5,64,83,1.87,ZA,1689527276
113,opuwo,-18.0607,13.84,21.98,23,0,4.34,NA,1689527276
114,rawlins,41.7911,-107.2387,25.94,22,0,6.69,US,1689527100
115,hammerfest,70.6634,23.6821,18.25,63,0,6.69,NO,1689527277
116,kuluncak,38.8828,37.6728,19.56,58,0,7.67,TR,1689527277
117,gulf shores,30.246,-87.7008,34.08,62,0,5.14,US,1689527277
118,eraan,9.0629,117.7016,26.77,82,98,4.46,PH,1689527277
119,rio grande,-32.035,-52.0986,16.06,57,1,5.97,BR,1689527277
120,bredasdorp,-34.5322,20.0403,14.71,79,95,2.53,ZA,1689527277
121,box elder,41.5005,-112.8764,25.08,37,0,2.45,US,1689527277
122,las terrenas,19.311,-69.5428,31.93,74,40,3.09,DO,1689527278
123,tolanaro,-25.0319,46.9987,19.18,78,0,4.82,MG,1689527278
124,mount pearl,47.5166,-52.7813,26.92,72,100,0.45,CA,1689527278
125,sinabang,2.4803,96.3801,26.32,83,75,1.68,ID,1689527278
126,cascavel,-24.9558,-53.4553,15.91,63,85,2.1,BR,1689527278
127,college,64.8569,-147.8028,16.99,78,75,2.57,US,1689527278
128,union city,37.5958,-122.0192,35.34,59,0,3.6,US,1689527221
129,haiku-pauwela,20.9219,-156.3051,24.47,77,40,2.57,US,1689527279
130,pierre,44.3683,-100.351,26.51,41,75,4.92,US,1689527279
131,tazacorte,28.629,-17.9293,25.64,66,20,7.72,ES,1689527279
132,bokoro,12.3807,17.0568,35.08,37,17,1.81,TD,1689527279
133,melekeok village,7.4957,134.6367,27.78,82,100,5.55,PW,1689527279
134,al hufuf,25.3646,49.5653,36.26,21,5,4.44,SA,1689527279
135,iqaluit,63.7506,-68.5145,8.85,93,100,3.09,CA,1689527279
136,tofol,5.3248,163.0078,27.65,81,98,6.47,FM,1689527279
137,bandarbeyla,9.4942,50.8122,24.45,80,68,12.79,SO,1689527280
138,taoudenni,22.6783,-3.9836,43.61,14,80,4.58,ML,1689527280
139,bucerias,20.75,-105.3333,31.66,89,75,2.06,MX,1689527280
140,griffith,41.5284,-87.4237,27.28,57,0,3.6,US,1689527280
141,enewetak,11.3474,162.3373,28.03,80,98,6.5,MH,1689527280
142,howard springs,-12.497,131.047,24.9,67,27,1.56,AU,1689527280
143,kasempa,-13.4584,25.8338,17.01,35,2,2.41,ZM,1689527280
144,kalibo (poblacion),11.7061,122.3644,24.54,81,85,2.55,PH,1689527281
145,bikenibeu village,1.3673,173.1241,28.41,74,38,3.99,KI,1689527281
146,eaglehawk,-36.7333,144.25,1.43,51,0,0.94,AU,1689527281
147,irymple,-34.25,142.1667,6.27,79,0,2.4,AU,1689527281
148,kone,-21.0595,164.8658,19.01,64,73,2.4,NC,1689527282
149,al jubayl,27.0112,49.6583,33.96,49,2,3.02,SA,1689527282
150,mount isa,-20.7333,139.5,17.87,72,100,1.54,AU,1689527282
151,abepura,-2.6333,140.5833,24.45,88,20,5.14,ID,1689527282
152,kuytun,54.3419,101.5036,15.91,97,100,3.46,RU,1689527282
153,jamestown,42.097,-79.2353,25.57,72,75,3.09,US,1689527283
154,gualeguay,-33.1416,-59.3097,11.3,52,68,3.22,AR,1689527283
155,nuuk,64.1835,-51.7216,8.34,100,100,2.57,GL,1689527260
156,hasaki,35.7333,140.8333,25.22,88,39,2.08,JP,1689527283
157,iskateley,67.6803,53.1512,19.19,74,41,4.59,RU,1689527283
158,acapulco de juarez,16.8634,-99.8901,31.9,66,75,2.06,MX,1689527149
159,tynda,55.1667,124.7167,16.54,82,64,0.53,RU,1689527284
160,quelimane,-17.8786,36.8883,18.81,75,1,2.34,MZ,1689527284
161,san patricio,28.017,-97.5169,36.15,34,20,4.47,US,1689527284
162,lerwick,60.1545,-1.1494,13.0,82,86,4.74,GB,1689527285
163,basco,20.4487,121.9702,29.07,78,99,2.94,PH,1689527285
164,labrador city,52.9463,-66.9114,24.78,46,96,3.66,CA,1689527285
165,klyuchi,52.2667,79.1667,17.05,69,26,5.13,RU,1689527285
166,gokwe,-18.2048,28.9349,13.89,35,0,1.61,ZW,1689527285
167,dolinsk,47.35,142.8,11.88,97,100,0.93,RU,1689527285
168,san antonio de pale,-1.4014,5.6325,23.15,80,10,5.15,GQ,1689527286
169,pulandian,39.3953,121.9669,20.29,81,1,1.41,CN,1689527286
170,talara,-4.5772,-81.2719,28.42,65,0,9.26,PE,1689527286
171,salinas,36.6777,-121.6555,25.34,66,0,2.57,US,1689527286
172,cedeira,43.6797,-8.0209,20.15,69,9,4.17,ES,1689527286
173,petropavlovsk-kamchatsky,53.0452,158.6483,10.02,97,82,0.39,RU,1689527286
174,male,4.1748,73.5089,28.85,74,71,5.94,MV,1689527287
175,macapa,0.0389,-51.0664,32.99,58,20,5.66,BR,1689527287
176,crane,31.3974,-102.3501,34.42,23,20,6.65,US,1689527287
177,gombi,10.1614,12.7399,29.88,48,59,0.28,NG,1689527287
178,nemuro,43.3236,145.575,12.66,94,99,2.23,JP,1689527287
179,nuku'alofa,-21.1333,-175.2,20.19,77,20,4.12,TO,1689527288
180,najran,17.4924,44.1277,32.65,11,38,3.26,SA,1689527288
181,ad darb,17.7229,42.2526,35.42,35,7,8.54,SA,1689527288
182,ta`u,-14.2336,-169.5144,26.66,79,100,8.74,AS,1689527288
183,vadso,70.0744,29.7487,20.49,82,0,7.2,NO,1689527289
184,fale old settlement,-9.3852,-171.2468,28.04,76,99,6.98,TK,1689527289
185,general mosconi,-23.1851,-62.303,17.56,44,100,2.65,AR,1689527289
186,hotan,37.0997,79.9269,32.65,14,56,4.14,CN,1689527289
187,peniche,39.3558,-9.3811,24.05,69,50,8.98,PT,1689527290
188,val-d'or,48.1002,-77.7828,20.7,87,81,2.22,CA,1689527290
189,kolonia,50.9333,6.95,25.59,37,0,4.63,DE,1689527136
190,belmonte,-15.8631,-38.8828,24.66,77,29,4.4,BR,1689527290
191,osorno,-40.5667,-73.15,8.17,76,75,3.09,CL,1689527112
192,kill devil hills,36.0307,-75.676,30.01,82,40,10.29,US,1689527291
193,porto empedocle,37.2934,13.5264,39.06,44,0,2.65,IT,1689527291
194,songea,-10.6833,35.65,15.16,51,0,1.71,TZ,1689527291
195,callao,-12.0667,-77.15,24.29,68,100,4.12,PE,1689527224
196,salamanca,40.8333,-6.0,28.88,14,27,5.01,ES,1689527292
197,auki,-8.7676,160.7034,24.82,90,98,1.65,SB,1689527292
198,jiexiu,37.0244,111.9125,23.52,42,6,2.0,CN,1689527292
199,tobelo,1.7284,128.0095,24.77,88,100,1.45,ID,1689527293
200,saipan,15.1355,145.701,27.39,100,40,3.09,MP,1689527293
201,praia,14.9215,-23.5087,29.3,70,75,5.14,CV,1689527293
202,talnakh,69.4865,88.3972,3.49,93,100,1.9,RU,1689527293
203,luderitz,-26.6481,15.1594,18.37,49,0,5.26,NA,1689527293
204,hunchun,42.8675,130.3581,16.61,98,100,0.53,CN,1689527293
205,whitehorse,60.7161,-135.0538,18.39,51,20,6.17,CA,1689527182
206,tommot,58.9564,126.2925,10.08,93,40,0.47,RU,1689527294
207,remire-montjoly,4.9167,-52.2667,27.02,83,40,1.03,GF,1689527294
208,constantia,44.1833,28.65,28.38,60,0,5.21,RO,1689527110
209,puerto francisco de orellana,-0.4667,-76.9667,27.03,83,75,1.03,EC,1689527294
210,veraval,20.9,70.3667,27.89,83,97,5.54,IN,1689527294
211,port lincoln,-34.7333,135.8667,9.38,71,0,2.71,AU,1689527295
212,harrismith,-28.2728,29.1295,8.18,46,0,1.14,ZA,1689527295
213,port alfred,-33.5906,26.891,17.02,58,21,3.18,ZA,1689527295
214,suva,-18.1416,178.4415,19.71,94,40,1.03,FJ,1689527295
215,santa ana,33.7456,-117.8678,32.2,70,20,3.6,US,1689527295
216,boca suno,-0.7167,-77.1333,26.77,62,88,0.61,EC,1689527296
217,luorong,24.4058,109.6086,28.45,59,41,4.53,CN,1689527296
218,eagle river,45.9172,-89.2443,21.91,43,66,1.34,US,1689527212
219,sao joao da barra,-21.6403,-41.0511,28.05,65,19,6.1,BR,1689527296
220,whakatane,-37.9585,176.9854,11.54,83,33,1.79,NZ,1689527296
221,selfoss,63.9331,-20.9971,13.91,50,100,2.47,IS,1689527296
222,camana,-16.6228,-72.7111,18.81,77,30,2.9,PE,1689527297
223,east london,-33.0153,27.9116,18.27,61,27,1.86,ZA,1689527263
224,usinsk,65.9939,57.5281,21.44,50,76,3.08,RU,1689527297
225,nova sintra,14.8667,-24.7167,22.94,83,100,3.65,CV,1689527297
226,zayed city,24.3768,54.589,37.08,47,0,3.6,AE,1689527297
227,pokhvistnevo,53.6524,52.1274,17.0,87,100,3.88,RU,1689527298
228,wismar,53.9,11.4667,24.58,47,21,3.13,DE,1689527298
229,prince rupert,54.3161,-130.3201,14.83,97,100,1.54,CA,1689527109
230,kinablangan,7.6947,126.5503,25.58,86,100,0.55,PH,1689527298
231,magong,23.5654,119.5863,28.48,79,100,6.76,TW,1689527298
232,antsiranana,-12.2787,49.2917,23.42,79,8,5.14,MG,1689527298
233,kas,36.2018,29.6377,31.07,49,0,2.01,TR,1689527298
234,xinzhi,36.4989,111.7047,26.21,48,4,2.69,CN,1689527299
235,kerikeri,-35.2268,173.9474,11.06,89,45,0.45,NZ,1689527299
236,salalah,17.0151,54.0924,27.05,89,100,4.12,OM,1689527299
237,ongjin,37.9347,125.3619,22.22,90,100,0.91,KP,1689527299
238,thai nguyen,21.5928,105.8442,30.88,72,95,2.2,VN,1689527299
239,kenai,60.5544,-151.2583,12.3,98,100,3.09,US,1689527299
240,chernyshevskiy,63.0128,112.4714,6.75,73,75,1.56,RU,1689527300
241,pedernales,18.0384,-71.744,31.93,59,100,1.59,DO,1689527300
242,tutoia,-2.7619,-42.2744,29.29,64,17,5.23,BR,1689527300
243,chonchi,-42.6128,-73.8092,5.56,65,4,1.93,CL,1689527300
244,beaufort west,-32.3567,22.583,15.36,45,70,0.51,ZA,1689527300
245,hawaiian paradise park,19.5933,-154.9731,23.35,83,100,1.54,US,1689527300
246,san julian,21.0167,-102.1667,22.68,46,12,3.62,MX,1689527301
247,colonia,50.9333,6.95,25.59,37,0,4.63,DE,1689527301
248,gurupi,-11.7292,-49.0686,35.96,19,19,2.73,BR,1689527301
249,jinchang,38.4953,102.1739,25.6,26,64,1.8,CN,1689527301
250,new yekepa,7.5794,-8.5378,23.64,93,93,0.59,LR,1689527302
251,cutral-co,-38.9469,-69.2089,6.62,10,6,0.89,AR,1689527302
252,vila franca do campo,37.7167,-25.4333,22.23,67,47,1.46,PT,1689527302
253,quellon,-43.1167,-73.6167,7.14,76,75,2.57,CL,1689527302
254,pirallahi,40.4723,50.333,25.08,77,3,9.88,AZ,1689527302
255,yass,-34.8333,148.9167,4.35,93,0,1.84,AU,1689527302
256,izmir,38.4622,27.0923,34.73,27,0,8.75,TR,1689527140
257,kafue,-15.7691,28.1814,14.83,51,0,1.76,ZM,1689527303
258,zhongshu,24.5167,103.7667,16.07,85,15,2.39,CN,1689527303
259,quang ngai,15.1167,108.8,25.14,90,100,2.1,VN,1689527214
260,kani keli,-12.9536,45.1033,24.59,74,0,3.38,YT,1689527303
261,al bawiti,28.3492,28.8659,35.45,12,0,4.27,EG,1689527303
262,pisco,-13.7,-76.2167,21.03,68,100,2.57,PE,1689527304
263,zahedan,29.4963,60.8629,32.95,10,0,2.06,IR,1689527304
264,troitskoye,52.9821,84.6757,15.14,98,96,0.83,RU,1689527304
265,la'ie,21.6477,-157.9253,24.14,85,12,1.79,US,1689527304
266,utrik,11.2278,169.8474,27.9,80,98,7.2,MH,1689527304
267,newman,37.3138,-121.0208,36.7,17,94,1.5,US,1689527305
268,aykhal,66.0,111.5,8.68,64,96,3.93,RU,1689527305
269,bien hoa,10.95,106.8167,25.99,89,100,4.45,VN,1689527305
270,port augusta,-32.5,137.7667,6.78,53,0,1.95,AU,1689527305
271,villa gesell,-37.2639,-56.973,10.59,66,77,8.53,AR,1689527305
272,cove,7.221,2.3402,27.57,80,87,1.97,BJ,1689527306
273,puerto tirol,-27.3722,-59.0821,20.03,46,15,2.86,AR,1689527306
274,la passe,45.5549,-0.8967,23.9,55,3,5.25,FR,1689527306
275,kyshtovka,56.555,76.6271,14.45,88,16,3.28,RU,1689527306
276,santa cruz,-17.8,-63.1667,21.7,56,75,6.17,BO,1689527128
277,annau,37.8876,58.516,34.94,29,19,1.71,TM,1689527306
278,hirara,24.8,125.2833,27.76,82,51,3.78,JP,1689527307
279,sampacho,-33.3839,-64.7221,10.85,31,89,2.81,AR,1689527307
280,ujae,8.9322,165.7642,28.53,73,99,7.23,MH,1689527307
281,safipur,26.7333,80.35,32.33,62,100,3.58,IN,1689527307
282,banda aceh,5.5577,95.3222,28.42,78,100,10.57,ID,1689526825
283,ponta delgada,37.7333,-25.6667,22.4,64,40,5.66,PT,1689527307
284,nieuw amsterdam,5.8833,-55.0833,33.01,58,40,2.06,SR,1689527308
285,coquimbo,-29.9533,-71.3436,13.85,88,0,4.63,CL,1689527232
286,kangding,30.0513,101.9603,13.47,92,86,0.51,CN,1689527308
287,tselinnoye,53.0833,85.6667,15.02,96,100,1.04,RU,1689527308
288,radzyn podlaski,51.7833,22.6167,26.73,56,63,7.81,PL,1689527043
289,atafu village,-8.5421,-172.5159,28.31,74,99,5.82,TK,1689527308
290,greymouth,-42.4667,171.2,7.6,89,90,0.92,NZ,1689527309
291,vorgashor,67.5833,63.95,16.35,79,91,2.55,RU,1689527309
292,rovaniemi,66.5,25.7167,20.67,52,0,1.54,FI,1689527309
293,sola,-13.8833,167.55,25.24,83,86,11.6,VU,1689527309
294,swartz creek,42.9572,-83.8305,27.51,60,40,6.17,US,1689527309
295,port hedland,-20.3167,118.5667,15.03,41,0,3.09,AU,1689527310
296,ostersund,63.1792,14.6357,18.67,34,20,10.73,SE,1689527310
297,kimbe,-5.5502,150.1429,24.76,88,70,2.59,PG,1689527310
298,guerrero negro,27.9769,-114.0611,23.98,64,93,3.52,MX,1689527310
299,siwa oasis,29.2041,25.5195,39.7,16,0,8.74,EG,1689527310
300,majene,-3.5403,118.9707,24.7,89,59,5.86,ID,1689527311
301,iquique,-20.2208,-70.1431,19.02,67,30,3.35,CL,1689527247
302,linqiong,30.4159,103.4609,23.9,76,60,1.42,CN,1689527311
303,qacha's nek,-30.1154,28.6894,7.56,47,0,2.03,LS,1689527311
304,devils lake,48.1128,-98.8651,17.06,60,75,7.72,US,1689527311
305,simanggang,1.2472,111.4528,23.37,95,97,0.68,MY,1689527312
306,ketchikan,55.3422,-131.6461,17.26,82,75,3.09,US,1689527313
307,ghat,24.9647,10.1728,37.22,6,11,7.43,LY,1689527313
308,plastun,44.7561,136.2939,14.37,93,100,0.67,RU,1689527313
309,kotsyubyns'ke,50.4884,30.3296,26.86,55,20,0.31,UA,1689527313
310,arkhangel'sk,64.5401,40.5433,20.09,64,65,0.35,RU,1689527313
311,gryazovets,58.88,40.2525,18.83,72,97,1.25,RU,1689527313
312,arenapolis,-14.4503,-56.8461,36.34,22,6,0.94,BR,1689527314
313,capayan,-28.761,-66.0502,16.28,42,1,2.59,AR,1689527314
314,vwawa,-9.1167,32.9333,13.59,71,5,2.83,TZ,1689527314
315,olyokminsk,60.3736,120.4264,8.89,71,4,1.35,RU,1689527314
316,queenstown,-31.8976,26.8753,11.49,42,3,1.44,ZA,1689527314
317,aleksandrovsk-sakhalinskiy,50.8975,142.1561,13.75,92,100,2.07,RU,1689527314
318,broome,42.2506,-75.833,27.23,74,75,4.12,US,1689527315
319,vardenis,40.1827,45.7311,13.8,91,89,2.13,AM,1689527315
320,katsuura,35.1333,140.3,24.5,95,100,3.65,JP,1689527315
321,jamaame,0.0697,42.745,24.48,78,98,5.81,SO,1689527315
322,leteri,24.05,77.4,25.39,86,41,3.2,IN,1689527315
323,kruisfontein,-34.0033,24.7314,13.27,53,79,1.82,ZA,1689527315
324,sokhumi,43.0033,41.0153,20.13,86,16,1.31,GE,1689527316
325,ancud,-41.8697,-73.8203,6.31,72,5,4.27,CL,1689527316
326,warmbaths,-24.8833,28.2833,14.48,29,1,0.57,ZA,1689527316
327,carupano,10.6678,-63.2585,30.2,65,13,6.06,VE,1689527316
328,goianesia,-15.3175,-49.1175,33.81,21,11,1.73,BR,1689527186
329,panauti,27.5814,85.5124,22.18,94,75,1.54,NP,1689527316
330,carnarvon,-24.8667,113.6333,16.43,57,0,5.79,AU,1689527317
331,canutama,-6.5339,-64.3831,35.06,39,41,1.76,BR,1689527317
332,nizhnesortymskiy,62.4397,71.7603,15.69,60,32,3.24,RU,1689527060
333,kolondieba,11.0882,-6.8926,28.69,68,90,1.4,ML,1689527317
334,zhezqazghan,47.7833,67.7667,30.74,22,97,1.22,KZ,1689527317
335,oak hill,37.9723,-81.1487,25.75,67,77,3.98,US,1689527118
336,wewak,-3.5534,143.6268,25.95,87,46,0.67,PG,1689527317
337,mirnyy,62.5353,113.9611,9.02,70,58,0.89,RU,1689527317
338,tinghir,31.5157,-5.5343,34.86,5,0,5.16,MA,1689527318
339,sisimiut,66.9395,-53.6735,7.28,90,100,1.22,GL,1689527318
340,pionerskiy,54.9508,20.2275,22.08,73,93,5.6,RU,1689527318
341,garachico,28.7781,-17.7646,24.16,69,20,7.72,ES,1689527318
342,burang,30.25,81.1667,12.19,76,59,2.25,CN,1689527318
343,dunedin,-45.8742,170.5036,10.45,50,69,4.14,NZ,1689527318
344,lata,40.1629,-8.3327,21.15,39,49,5.2,PT,1689527318
345,rongelap,11.1635,166.8941,28.25,78,97,6.77,MH,1689527319
346,balqash,46.8481,74.995,24.8,42,1,2.77,KZ,1689527319
347,dangriga,16.9692,-88.2321,28.37,83,100,5.67,BZ,1689527319
348,lake albert,-35.1667,147.3833,5.21,96,0,1.49,AU,1689527319
349,kawm umbu,24.4767,32.9463,38.86,8,1,4.79,EG,1689527319
350,cassilandia,-19.1133,-51.7342,31.47,28,25,1.52,BR,1689527319
351,al jawf,29.5,38.75,37.55,9,1,1.01,SA,1689527319
352,santarem,-2.4431,-54.7083,31.07,70,20,5.66,BR,1689527320
353,saint-pierre,-21.3393,55.4781,22.82,78,0,11.83,RE,1689527320
354,sovetskaya gavan',48.9723,140.2878,13.86,93,100,1.71,RU,1689527320
355,jining,35.405,116.5814,25.01,67,1,2.62,CN,1689527320
356,huarmey,-10.0681,-78.1522,23.29,70,68,4.01,PE,1689527320
357,lebu,-37.6167,-73.65,9.63,60,100,6.44,CL,1689527320
358,charef,34.621,2.795,35.24,7,0,7.59,DZ,1689527320
359,mount gambier,-37.8333,140.7667,6.82,88,60,2.97,AU,1689527321
360,chibougamau,49.9168,-74.3659,19.79,94,100,3.09,CA,1689527321
361,georgetown,5.4112,100.3354,28.96,65,20,1.03,MY,1689527228
362,san rafael,-34.6177,-68.3301,8.51,33,100,3.24,AR,1689527322
363,nea kallikrateia,40.3167,23.0667,33.98,41,0,3.51,GR,1689527322
364,kailua-kona,19.6406,-155.9956,23.98,84,40,2.06,US,1689527322
365,papao,-17.75,-149.55,21.82,61,0,1.61,PF,1689527322
366,borogontsy,62.6683,131.1683,6.98,82,62,1.23,RU,1689527322
367,lewiston orchards,46.3804,-116.9754,32.29,29,0,1.54,US,1689527323
368,abingdon,51.6711,-1.2828,19.54,74,100,6.17,GB,1689527323
369,fatezh,52.0891,35.8632,22.77,71,34,2.46,RU,1689527323
370,hobyo,5.3505,48.5268,25.36,82,30,13.17,SO,1689527323
371,ipora,-16.4419,-51.1178,33.16,21,8,2.23,BR,1689527165
372,akureyri,65.6835,-18.0878,11.52,55,77,5.48,IS,1689527323
373,labytnangi,66.6572,66.4183,17.68,74,68,3.66,RU,1689527323
374,rindge,42.7512,-72.0098,22.73,82,100,0.45,US,1689527323
375,mossel bay,-34.1831,22.146,15.61,72,78,0.28,ZA,1689527324
376,yinchuan,38.4681,106.2731,26.72,16,0,1.4,CN,1689527324
377,la ronge,55.1001,-105.2842,15.11,65,69,1.84,CA,1689527324
378,laghouat,33.8,2.8651,37.92,6,0,6.38,DZ,1689527324
379,antofagasta,-23.65,-70.4,18.6,61,50,3.36,CL,1689527141
380,st. john's,47.5649,-52.7093,27.38,74,100,1.34,CA,1689527324
381,novodvinsk,64.4165,40.8122,20.36,64,62,0.84,RU,1689527072
382,plunge,55.9114,21.8442,20.33,75,100,4.67,LT,1689527325
383,abadeh,31.1608,52.6506,29.06,10,12,3.04,IR,1689527325
384,chengdu,30.6667,104.0667,24.61,82,7,1.33,CN,1689527230
385,hoshangabad,22.75,77.7167,24.77,92,91,3.84,IN,1689527325
386,new norfolk,-42.7826,147.0587,13.29,69,47,5.06,AU,1689527325
387,nehe,48.4833,124.8333,14.54,87,46,2.18,CN,1689527325
388,yemva,62.59,50.8594,19.64,56,100,1.01,RU,1689527325
389,nouadhibou,20.931,-17.0347,25.99,61,46,12.35,MR,1689527325
390,hinton,53.4001,-117.5857,22.89,49,70,0.76,CA,1689527326
391,cole harbour,44.6724,-63.4751,25.66,85,97,1.79,CA,1689527326
392,yuzhno-sukhokumsk,44.6581,45.6436,22.93,47,96,6.89,RU,1689527304
393,charters towers,-20.1,146.2667,14.35,70,50,3.36,AU,1689527326
394,tabarka,36.9544,8.758,33.63,48,45,3.94,TN,1689527326
395,lazaro cardenas,17.9583,-102.2,31.13,66,80,0.53,MX,1689527326
396,itanagar,27.1,93.6167,23.37,98,100,0.88,IN,1689527326
397,praia da vitoria,38.7333,-27.0667,24.31,66,79,5.12,PT,1689527327
398,bomadi,5.1593,5.9252,25.27,89,97,2.88,NG,1689527327
399,okhotsk,59.3833,143.3,11.47,96,41,0.62,RU,1689527327
400,kumher,27.3167,77.3667,31.81,64,81,1.53,IN,1689527327
401,adh dhayd,25.2881,55.8816,37.44,42,76,1.48,AE,1689527327
402,mumford,5.2618,-0.759,26.11,81,100,4.64,GH,1689527327
403,karratha,-20.7377,116.8463,18.91,33,0,3.97,AU,1689527184
404,baruun-urt,46.6806,113.2792,19.73,34,84,2.27,MN,1689527328
405,yuzhno-kurilsk,44.0306,145.8556,13.05,93,100,0.28,RU,1689527328
406,ouadda,8.0777,22.4007,23.51,87,42,1.3,CF,1689527328
407,itoman,26.1247,127.6694,27.43,92,75,7.72,JP,1689527328
408,mirny,62.5353,113.9611,9.02,70,58,0.89,RU,1689527328
409,susuman,62.7833,148.1667,14.51,83,49,3.97,RU,1689527328
410,ocean shores,46.9737,-124.1563,16.08,95,100,4.12,US,1689527135
411,benghazi,32.1167,20.0667,28.71,71,0,8.01,LY,1689527329
412,arraial do cabo,-22.9661,-42.0278,27.92,47,0,2.57,BR,1689527296
413,butembo,0.15,29.2833,19.5,56,91,0.87,CD,1689527329
414,szigetvar,46.0486,17.8055,32.53,50,0,2.35,HU,1689527329
415,kibre mengist,5.8833,38.9833,16.25,80,98,1.5,ET,1689527329
416,fisterra,42.9049,-9.2629,20.42,69,28,6.71,ES,1689527329
417,puerto baquerizo moreno,-0.9,-89.6,27.55,74,40,7.72,EC,1689527329
418,zhangye,38.9342,100.4517,25.45,28,18,2.45,CN,1689527329
419,cidreira,-30.1811,-50.2056,15.25,65,27,5.42,BR,1689527089
420,bapatla,15.9,80.4667,29.99,60,100,3.24,IN,1689527330
421,sivas,39.7916,37.0019,15.35,67,0,8.75,TR,1689527262
422,corinto,37.9407,22.9573,33.27,39,0,2.99,GR,1689527330
423,keflavik,64.0049,-22.5624,13.24,58,0,8.75,IS,1689527330
424,quepos,9.4236,-84.1652,29.01,77,49,1.76,CR,1689527330
425,pangoa,-12.1167,-73.0,29.67,46,7,1.96,PE,1689527330
426,mende,44.6667,3.5,22.11,50,33,3.11,FR,1689527331
427,gereida,11.2811,25.1414,32.78,39,38,2.1,SD,1689527331
428,amga,60.8953,131.9608,11.26,99,99,1.59,RU,1689527331
429,matara,5.9485,80.5353,27.02,85,75,6.09,LK,1689527331
430,saint-francois,46.4154,3.9054,23.69,46,0,4.12,FR,1689527336
431,steamboat springs,40.485,-106.8317,24.41,30,0,0.89,US,1689527336
432,nar'yan-mar,67.6713,53.087,19.25,74,42,4.6,RU,1689527336
433,mont-dore,-22.2833,166.5833,21.67,99,63,4.0,NC,1689527337
434,maitum,6.0392,124.4986,25.51,82,99,1.86,PH,1689527337
435,usogorsk,63.4106,48.6872,20.91,63,82,2.14,RU,1689527337
436,yeniseysk,58.4497,92.1703,15.82,85,65,1.69,RU,1689527337
437,cheremushki,52.8356,91.3944,15.87,83,42,2.13,RU,1689527167
438,juchipila,21.4167,-103.1167,28.88,36,1,1.99,MX,1689527337
439,hanceville,34.0607,-86.7675,31.76,49,3,3.39,US,1689527338
440,flying fish cove,-10.4217,105.6791,23.82,88,100,3.6,CX,1689527338
441,parnu,58.3859,24.4971,25.05,57,75,3.09,EE,1689527338
442,likisa,-8.6695,125.6875,16.4,88,69,2.51,TL,1689527338
443,fiambala,-27.6871,-67.6149,18.71,14,0,2.53,AR,1689527338
444,andovoranto,-18.95,49.1,21.36,80,95,3.77,MG,1689527338
445,vel'sk,61.0701,42.0983,19.91,67,100,1.89,RU,1689527338
446,taft,31.7471,54.2088,35.97,10,0,3.09,IR,1689527339
447,barra do garcas,-15.89,-52.2567,34.91,21,4,2.59,BR,1689527339
448,pudozh,61.8099,36.5345,20.54,65,81,1.87,RU,1689527339
449,kitimat,54.0524,-128.6534,15.94,23,93,3.13,CA,1689527339
450,fort st. john,56.2499,-120.8529,20.55,55,21,1.48,CA,1689527207
451,tsiombe,-25.3,45.4833,18.85,67,1,0.4,MG,1689527339
452,howrah,22.5892,88.3103,28.0,94,40,2.06,IN,1689527340
453,chiquinquira,5.6164,-73.8175,18.15,58,54,1.77,CO,1689527340
454,riyadh,24.6877,46.7219,40.08,6,3,3.48,SA,1689527135
455,rostovka,55.3842,71.8891,15.05,85,71,2.06,RU,1689527340
456,alma,48.5501,-71.6491,21.72,98,100,1.92,CA,1689527101
457,paros,37.0833,25.15,30.4,54,0,8.75,GR,1689527340
458,vilyuchinsk,52.9306,158.4028,10.14,97,53,0.43,RU,1689527340
459,suciu de sus,47.4333,24.0333,30.44,63,0,0.76,RO,1689527340
460,minas de marcona,-15.2119,-75.1103,18.16,55,12,4.54,PE,1689527341
461,domoni,-12.2569,44.5319,24.21,77,46,3.97,KM,1689527341
462,juneau,58.3019,-134.4197,17.0,91,75,6.69,US,1689527190
463,kingston,17.997,-76.7936,34.02,67,20,10.29,JM,1689527111
464,crucecita,-28.95,-58.9833,17.24,50,0,3.24,AR,1689527341
465,broken hill,-31.95,141.4333,6.96,60,0,3.69,AU,1689527341
466,masterton,-40.9597,175.6575,7.16,95,67,1.62,NZ,1689527341
467,saudarkrokur,65.7461,-19.6394,8.45,75,45,6.57,IS,1689527342
468,santa ana de yacuma,-13.75,-65.4333,31.12,40,3,2.41,BO,1689527342
469,barcelos,41.5388,-8.6151,25.51,53,87,6.19,PT,1689527342
470,brandon,27.9378,-82.2859,33.95,75,75,5.14,US,1689527342
471,dakoro,14.5106,6.765,37.6,26,21,1.91,NE,1689527343
472,kurumkan,54.3,110.3,20.54,66,85,0.24,RU,1689527343
473,namtsy,62.7161,129.6658,6.55,79,21,1.16,RU,1689527343
474,dwarka,22.2394,68.9678,28.78,77,48,6.3,IN,1689527343
475,kayangel,8.0823,134.7173,28.67,76,100,5.99,PW,1689527344
476,marietta,33.9526,-84.5499,32.08,62,75,4.63,US,1689527248
477,kralendijk,12.15,-68.2667,30.99,70,40,9.77,BQ,1689527344
478,hauterive,46.0901,3.4459,24.42,43,36,2.52,FR,1689527344
479,jerseyville,39.12,-90.3285,31.9,36,0,5.43,US,1689527344
480,ayame,5.6083,-3.1563,24.54,89,99,1.4,CI,1689527345
481,naxos,37.1056,25.3764,29.61,60,0,4.92,GR,1689527345
482,homer,59.6425,-151.5483,11.94,88,100,1.54,US,1689527345
483,porto velho,-8.7619,-63.9039,34.03,55,40,1.54,BR,1689527345
484,lichinga,-13.3128,35.2406,12.13,65,0,1.02,MZ,1689527346
485,inhambane,-23.865,35.3833,19.53,67,2,1.58,MZ,1689527346
486,hongqiao,26.7684,112.1081,25.94,69,39,2.4,CN,1689527119
487,kalyny,48.1408,23.8738,25.7,67,0,0.66,UA,1689527346
488,chadron,42.8294,-102.9999,24.86,57,0,0.0,US,1689527346
489,den burg,53.0542,4.7972,20.0,66,100,9.77,NL,1689527347
490,rudnyy,52.9594,63.1206,22.13,79,58,5.71,KZ,1689527347
491,puerto cabezas,14.0351,-83.3888,29.63,73,100,5.61,NI,1689527347
492,palikir - national government center,6.9248,158.1611,26.08,87,100,6.45,FM,1689527347
493,gadzhiyevo,69.2551,33.3362,14.9,77,62,2.57,RU,1689527348
494,egilsstadir,65.2653,-14.3948,10.44,67,100,5.36,IS,1689527348
495,balangiga,11.1097,125.3875,27.13,81,71,3.7,PH,1689527348
496,vicuna,-30.0319,-70.7081,24.32,9,81,2.46,CL,1689527250
497,palmer,42.1584,-72.3287,24.58,86,100,5.66,US,1689527348
498,bodo,67.28,14.405,16.08,90,100,2.57,NO,1689527349
499,nellore,14.4333,79.9667,32.59,45,100,4.03,IN,1689527349
500,kilindoni,-7.9139,39.6668,25.17,74,2,8.02,TZ,1689527349
501,twentynine palms,34.1356,-116.0542,41.25,14,42,2.15,US,1689527349
502,mugia,43.1041,-9.2179,20.51,66,10,4.91,ES,1689527349
503,cumbum,9.7333,77.3,24.54,84,97,3.51,IN,1689527349
504,prainha,-1.8,-53.48,32.77,45,17,2.72,BR,1689527350
505,yoloten,37.2989,62.3597,33.29,15,11,5.61,TM,1689527350
506,sydney mines,46.2367,-60.2177,29.65,71,74,2.24,CA,1689527350
507,pruszcz gdanski,54.2622,18.6363,25.36,76,75,4.12,PL,1689527350
508,saurimo,-9.6608,20.3916,23.93,23,2,2.32,AO,1689527350
509,nadym,65.5333,72.5167,14.65,60,26,4.52,RU,1689527350
510,marsh harbour,26.5412,-77.0636,30.0,70,100,4.84,BS,1689527123
511,bolsward,53.0655,5.5318,21.1,60,49,4.02,NL,1689527351
512,walvis bay,-22.9575,14.5053,18.38,41,0,6.09,NA,1689527351
513,cova figueira,14.8905,-24.2934,23.49,86,97,2.97,CV,1689527351
514,buala,-8.145,159.5921,26.16,86,99,1.83,SB,1689527352
515,lagos de moreno,21.35,-101.9167,27.38,38,13,2.42,MX,1689527352
516,medenine,33.355,10.5055,39.15,10,0,7.62,TN,1689527352
517,kalmunai,7.4167,81.8167,27.97,79,99,3.4,LK,1689527352
518,tabuk,17.4189,121.4443,24.3,90,100,0.73,PH,1689527352
519,karukh,34.4811,62.5863,28.24,17,0,11.88,AF,1689527352
520,tumayr,25.7039,45.868,36.53,5,9,5.84,SA,1689527353
521,karakocan,38.9558,40.0386,22.83,46,0,4.78,TR,1689527353
522,turpan,42.9333,89.1667,41.37,11,5,3.39,CN,1689527353
523,carahue,-38.7,-73.1667,6.95,73,97,1.52,CL,1689527353
524,lerma,42.0261,-3.7598,27.31,14,56,3.91,ES,1689527353
525,ambalangoda,6.2355,80.0538,28.03,81,98,7.3,LK,1689527353
526,coahuayana de hidalgo,18.7,-103.6583,33.66,54,81,1.77,MX,1689527354
527,port douglas,-16.4833,145.4667,21.89,79,94,8.12,AU,1689527354
528,conde,-7.2597,-34.9075,24.7,94,75,6.17,BR,1689527354
529,semera,11.501,41.201,37.0,24,40,5.57,ET,1689527354
530,dhaka,23.7104,90.4074,28.99,79,40,2.57,BD,1689527351
531,laguna,38.421,-121.4238,37.76,42,0,0.89,US,1689527355
532,nyurba,63.2842,118.3319,6.92,81,21,2.25,RU,1689527355
533,mazagao,-0.115,-51.2894,33.03,50,49,2.47,BR,1689527261
534,ceuta,35.8903,-5.3075,29.02,61,2,2.35,ES,1689527355
535,eydhafushi,5.1033,73.0708,28.53,76,50,6.66,MV,1689527355
536,kiama,-34.6833,150.8667,9.14,79,86,1.9,AU,1689527356
537,grand falls-windsor,48.9332,-55.6649,28.32,50,92,4.17,CA,1689527356
538,saint-joseph,-21.3667,55.6167,22.21,84,32,6.7,RE,1689527356
539,urcos,-13.6861,-71.6228,19.94,33,8,3.23,PE,1689527356
540,nikolayevsk-on-amure,53.1406,140.73,12.82,85,100,1.34,RU,1689527356
541,idri,27.5,13.2667,38.89,9,24,7.29,LY,1689527356
542,shahin dezh,36.6793,46.5669,27.61,26,16,1.64,IR,1689527357
543,esmeralda,21.8525,-78.1169,33.16,55,2,5.1,CU,1689527357
544,holualoa,19.6228,-155.9522,21.91,85,40,2.06,US,1689527357
545,codrington,-38.2667,141.9667,5.89,93,17,4.49,AU,1689527357
546,sainyabuli,19.25,101.75,22.34,97,100,0.39,LA,1689527357
547,tamanrasset,22.785,5.5228,31.95,22,40,3.09,DZ,1689527358
548,banda,25.4833,80.3333,33.37,60,99,1.06,IN,1689527358
549,bay roberts,47.5999,-53.2648,27.59,74,100,2.68,CA,1689527358
550,chakari,-18.0629,29.8925,15.82,33,0,2.03,ZW,1689527358
551,shiyan,32.6475,110.7781,23.63,80,0,0.47,CN,1689527358
552,namdrik,5.5994,168.1028,28.0,79,92,5.85,MH,1689527360
553,greytown,-29.0642,30.5928,10.26,54,0,1.38,ZA,1689527360
554,gamba,-2.65,10.0,21.89,84,2,3.92,GA,1689527360
555,dhanwar,24.4167,85.9833,27.27,83,83,4.63,IN,1689527360
556,impfondo,1.6381,18.0667,28.58,56,58,0.94,CG,1689527360
557,the pas,53.8251,-101.2541,16.01,77,40,3.09,CA,1689527361
558,tlaltenango de sanchez roman,21.7833,-103.3167,26.63,35,2,1.7,MX,1689527361
559,rio branco,-9.9747,-67.81,30.34,58,20,1.54,BR,1689527102
560,timimoun,29.2639,0.231,43.57,4,0,5.87,DZ,1689527361
561,brisas de zicatela,15.8369,-97.0419,31.29,66,75,2.06,MX,1689527361
562,al burayqah,30.4062,19.5739,27.41,77,34,8.9,LY,1689527362
563,antibes,43.5624,7.1278,31.19,70,20,2.06,FR,1689527157
564,atamyrat,37.8357,65.2106,33.46,11,0,7.08,TM,1689527357
565,kudymkar,59.0173,54.656,15.99,73,5,2.78,RU,1689527362
566,launceston,-41.45,147.1667,10.45,88,75,5.66,AU,1689527362
567,caleta de carquin,-11.0925,-77.6267,22.29,70,65,4.0,PE,1689527362
568,port saint john's,-31.6229,29.5448,17.91,64,2,0.66,ZA,1689527363
569,agat village,13.3886,144.6585,28.06,93,20,0.45,GU,1689527363
570,christchurch,-43.5333,172.6333,4.97,89,100,1.54,NZ,1689526766
571,nelson,-41.2833,173.2833,5.72,78,4,0.45,NZ,1689527257
572,pyu,18.4833,96.4333,24.64,93,97,1.31,MM,1689527363
573,shalqar,47.8333,59.6,26.52,30,86,5.62,KZ,1689527363
574,carauari,-4.8828,-66.8958,32.52,50,78,1.58,BR,1689527364
575,dudinka,69.4058,86.1778,5.9,78,99,0.73,RU,1689527364
576,sault ste. marie,46.5168,-84.3333,22.31,60,40,1.54,CA,1689527360
577,urzhar,47.093,81.6294,22.84,25,0,3.28,KZ,1689527364
578,sitka,57.0531,-135.33,14.94,88,100,1.54,US,1689527364
579,brejo da madre de deus,-8.1458,-36.3711,25.68,56,67,5.61,BR,1689527364
580,mansehra,34.3333,73.2,24.21,79,12,1.38,PK,1689527365
581,santana,-0.0583,-51.1817,33.1,58,20,5.66,BR,1689527205
582,saskatoon,52.1168,-106.6345,17.99,63,75,2.06,CA,1689527131
583,tangalle,6.024,80.7911,27.5,79,41,5.59,LK,1689527365
584,corn island,12.1694,-83.0418,27.77,84,100,8.96,NI,1689527365
585,tralee,52.2704,-9.7026,16.14,77,75,4.63,IE,1689527365
586,photharam,13.6923,99.8497,28.85,65,77,5.27,TH,1689527366
587,kharabali,47.4196,47.2568,20.23,65,83,6.77,RU,1689527366
